{"type":"FeatureCollection","features":[{"type":"Feature","id":1,"geometry":{"type":"Point","coordinates":[-75.437143625999965,6.3977058680000596]},"properties":{"OBJECTID":1,"Nombre":"Inestabilidad de Talud. Deslizamiento.","Categoria":"Movimiento en masa","Nivel_riesgo":"2_Alto_potencial","Niv_num":2,"Tipo_elem":"Inestabilidad ladera/talud","Amenaza_sitio":"ALTA","Amz_n":3,"Corredor":"San Andres (principal)","Vereda":"San Andres"}},{"type":"Feature","id":2,"geometry":{"type":"Point","coordinates":[-75.435881144999939,6.3967551210000693]},"properties":{"OBJECTID":2,"Nombre":"Inundacion por Torrencialidad ante creciente","Categoria":"Exposición/otro","Nivel_riesgo":"3_MedioAlto_estabilizado","Niv_num":3,"Tipo_elem":"Otro","Amenaza_sitio":"ALTA","Amz_n":3,"Corredor":"San Andres (principal)","Vereda":"San Andres"}},{"type":"Feature","id":3,"geometry":{"type":"Point","coordinates":[-75.437537959999986,6.3980801430000724]},"properties":{"OBJECTID":3,"Nombre":"Inestabilidad de Terreno por asentamiento de talud","Categoria":"Movimiento en masa","Nivel_riesgo":"2_Alto_potencial","Niv_num":2,"Tipo_elem":"Inestabilidad ladera/talud","Amenaza_sitio":"ALTA","Amz_n":3,"Corredor":"San Andres (principal)","Vereda":"San Andres"}},{"type":"Feature","id":4,"geometry":{"type":"Point","coordinates":[-75.439223755999933,6.3999161190000677]},"properties":{"OBJECTID":4,"Nombre":"Zona de desbordamiento por torrencialidad","Categoria":"Exposición/otro","Nivel_riesgo":"1_Critico_emergencia","Niv_num":1,"Tipo_elem":"Otro","Amenaza_sitio":"ALTA","Amz_n":3,"Corredor":"San Andres (principal)","Vereda":"San Andres"}},{"type":"Feature","id":5,"geometry":{"type":"Point","coordinates":[-75.43902594399998,6.3998326170000723]},"properties":{"OBJECTID":5,"Nombre":"Hogar Santa Clara. Afectacion por Emergencia.","Categoria":"Exposición/otro","Nivel_riesgo":"1_Critico_emergencia","Niv_num":1,"Tipo_elem":"Equipamiento (Hogar Sta Clara)","Amenaza_sitio":"ALTA","Amz_n":3,"Corredor":"San Andres (principal)","Vereda":"San Andres"}},{"type":"Feature","id":6,"geometry":{"type":"Point","coordinates":[-75.438984953999977,6.3994808400000238]},"properties":{"OBJECTID":6,"Nombre":"HogarnSanta Clara. Critico por efectacion ante torrencialidad","Categoria":"Exposición/otro","Nivel_riesgo":"1_Critico_emergencia","Niv_num":1,"Tipo_elem":"Equipamiento (Hogar Sta Clara)","Amenaza_sitio":"ALTA","Amz_n":3,"Corredor":"San Andres (principal)","Vereda":"San Andres"}},{"type":"Feature","id":7,"geometry":{"type":"Point","coordinates":[-75.439224044999946,6.3998665170000208]},"properties":{"OBJECTID":7,"Nombre":"Puente víal. incomunicacion ante desbordamiento torrencial","Categoria":"Exposición/otro","Nivel_riesgo":"1_Critico_emergencia","Niv_num":1,"Tipo_elem":"Puente","Amenaza_sitio":"ALTA","Amz_n":3,"Corredor":"San Andres (principal)","Vereda":"San Andres"}},{"type":"Feature","id":8,"geometry":{"type":"Point","coordinates":[-75.439033513999959,6.4000836360000335]},"properties":{"OBJECTID":8,"Nombre":"Vivienda afetcada por Desbordamiento torrencial","Categoria":"Exposición/otro","Nivel_riesgo":"1_Critico_emergencia","Niv_num":1,"Tipo_elem":"Vivienda","Amenaza_sitio":"ALTA","Amz_n":3,"Corredor":"San Andres (principal)","Vereda":"San Andres"}},{"type":"Feature","id":9,"geometry":{"type":"Point","coordinates":[-75.438769519999937,6.4001387100000215]},"properties":{"OBJECTID":9,"Nombre":"Vivienda Afectada por Desbordamietno Torrencial","Categoria":"Exposición/otro","Nivel_riesgo":"1_Critico_emergencia","Niv_num":1,"Tipo_elem":"Vivienda","Amenaza_sitio":"BAJA","Amz_n":1,"Corredor":"San Andres (principal)","Vereda":"San Andres"}},{"type":"Feature","id":10,"geometry":{"type":"Point","coordinates":[-75.439363914999944,6.3996909070000356]},"properties":{"OBJECTID":10,"Nombre":"Vía Rural Vereda San Andres - El Socorro. Incomunicacion por Desbordamiento Torrencial","Categoria":"Exposición/otro","Nivel_riesgo":"1_Critico_emergencia","Niv_num":1,"Tipo_elem":"Via / camino","Amenaza_sitio":"ALTA","Amz_n":3,"Corredor":"San Andres (principal)","Vereda":"San Andres"}},{"type":"Feature","id":11,"geometry":{"type":"Point","coordinates":[-75.437220195999942,6.3976494220000291]},"properties":{"OBJECTID":11,"Nombre":"socavacion de Talud ante torrencialidad, inestabiliza la ladera","Categoria":"Movimiento en masa","Nivel_riesgo":"3_MedioAlto_estabilizado","Niv_num":3,"Tipo_elem":"Inestabilidad ladera/talud","Amenaza_sitio":"ALTA","Amz_n":3,"Corredor":"San Andres (principal)","Vereda":"San Andres"}},{"type":"Feature","id":12,"geometry":{"type":"Point","coordinates":[-75.437105711999948,6.3974586220000447]},"properties":{"OBJECTID":12,"Nombre":"Infraestructura comercial en riesgo ante creciente Torrencial","Categoria":"Exposición/otro","Nivel_riesgo":"3_MedioAlto_estabilizado","Niv_num":3,"Tipo_elem":"Infraestructura / comercial","Amenaza_sitio":"ALTA","Amz_n":3,"Corredor":"San Andres (principal)","Vereda":"San Andres"}},{"type":"Feature","id":13,"geometry":{"type":"Point","coordinates":[-75.436563066999952,6.3972194210000453]},"properties":{"OBJECTID":13,"Nombre":"Afectación de Movilidad ante Creciente Torrencial Via Nacional","Categoria":"Exposición/otro","Nivel_riesgo":"3_MedioAlto_estabilizado","Niv_num":3,"Tipo_elem":"Via / camino","Amenaza_sitio":"ALTA","Amz_n":3,"Corredor":"San Andres (principal)","Vereda":"San Andres"}},{"type":"Feature","id":14,"geometry":{"type":"Point","coordinates":[-75.440561302999981,6.4011216090000289]},"properties":{"OBJECTID":14,"Nombre":"Inestabiliad de Terreno. Socavaciones ante crecientes.","Categoria":"Movimiento en masa","Nivel_riesgo":"4_Medio_no_inmediato","Niv_num":4,"Tipo_elem":"Inestabilidad ladera/talud","Amenaza_sitio":"ALTA","Amz_n":3,"Corredor":"San Andres (principal)","Vereda":"San Andres"}},{"type":"Feature","id":15,"geometry":{"type":"Point","coordinates":[-75.44071914899996,6.401371230000052]},"properties":{"OBJECTID":15,"Nombre":"Inestabiliad de Terreno. Socavaciones ante crecientes.","Categoria":"Movimiento en masa","Nivel_riesgo":"4_Medio_no_inmediato","Niv_num":4,"Tipo_elem":"Inestabilidad ladera/talud","Amenaza_sitio":"ALTA","Amz_n":3,"Corredor":"San Andres (principal)","Vereda":"San Andres"}},{"type":"Feature","id":16,"geometry":{"type":"Point","coordinates":[-75.441425765999952,6.4037201680000635]},"properties":{"OBJECTID":16,"Nombre":"Cambio Topográfico, Salto, posible punto de represamiento","Categoria":"Represamiento","Nivel_riesgo":"4_Medio_no_inmediato","Niv_num":4,"Tipo_elem":"Punto de represamiento","Amenaza_sitio":"ALTA","Amz_n":3,"Corredor":"San Andres (principal)","Vereda":"Mercedes Abrego"}},{"type":"Feature","id":17,"geometry":{"type":"Point","coordinates":[-75.441244849999975,6.403203273000031]},"properties":{"OBJECTID":17,"Nombre":"Incomunicación por Afectación de puente peatonal","Categoria":"Exposición/otro","Nivel_riesgo":"4_Medio_no_inmediato","Niv_num":4,"Tipo_elem":"Puente","Amenaza_sitio":"ALTA","Amz_n":3,"Corredor":"San Andres (principal)","Vereda":"Mercedes Abrego"}},{"type":"Feature","id":18,"geometry":{"type":"Point","coordinates":[-75.442748620999964,6.4051926730000446]},"properties":{"OBJECTID":18,"Nombre":"Cambio Topográfico, Salto, posible punto de represamiento. perdida de unidades productivas Agricolas: vacas, caballos, m","Categoria":"Represamiento","Nivel_riesgo":"4_Medio_no_inmediato","Niv_num":4,"Tipo_elem":"Unidades productivas","Amenaza_sitio":"ALTA","Amz_n":3,"Corredor":"San Andres (principal)","Vereda":"Mercedes Abrego"}},{"type":"Feature","id":19,"geometry":{"type":"Point","coordinates":[-75.443500056999937,6.4053246550000722]},"properties":{"OBJECTID":19,"Nombre":"Cambio Topográfico, Salto, posible punto de represamiento. perdida de unidades productivas Agricolas: vacas, caballos, m","Categoria":"Represamiento","Nivel_riesgo":"4_Medio_no_inmediato","Niv_num":4,"Tipo_elem":"Unidades productivas","Amenaza_sitio":"ALTA","Amz_n":3,"Corredor":"San Andres (principal)","Vereda":"San Andres"}},{"type":"Feature","id":20,"geometry":{"type":"Point","coordinates":[-75.444169768999984,6.4056489700000725]},"properties":{"OBJECTID":20,"Nombre":"Acumulación de material rocoso. Zona de disipacion de energía","Categoria":"Salto/material rocoso","Nivel_riesgo":"5_Bajo_recuperacion","Niv_num":5,"Tipo_elem":"Salto / cambio topografico","Amenaza_sitio":"ALTA","Amz_n":3,"Corredor":"San Andres (principal)","Vereda":"Mercedes Abrego"}},{"type":"Feature","id":21,"geometry":{"type":"Point","coordinates":[-75.445565688999977,6.4062267180000276]},"properties":{"OBJECTID":21,"Nombre":"Inestabiliad de Talud, posible punto de represamiento","Categoria":"Represamiento","Nivel_riesgo":"3_MedioAlto_estabilizado","Niv_num":3,"Tipo_elem":"Punto de represamiento","Amenaza_sitio":"ALTA","Amz_n":3,"Corredor":"San Andres (principal)","Vereda":"Mercedes Abrego"}},{"type":"Feature","id":22,"geometry":{"type":"Point","coordinates":[-75.447057380999979,6.4072098150000443]},"properties":{"OBJECTID":22,"Nombre":"Cambio Topográfico, Salto, posible punto de represamiento. perdida de unidades productivas Agricolas: vacas, caballos, m","Categoria":"Represamiento","Nivel_riesgo":"3_MedioAlto_estabilizado","Niv_num":3,"Tipo_elem":"Unidades productivas","Amenaza_sitio":"ALTA","Amz_n":3,"Corredor":"San Andres (principal)","Vereda":"Mercedes Abrego"}},{"type":"Feature","id":23,"geometry":{"type":"Point","coordinates":[-75.448992316999977,6.4087773100000618]},"properties":{"OBJECTID":23,"Nombre":"Cambio Topográfico, Salto, posible punto de represamiento. perdida de unidades productivas Agricolas: vacas, caballos, m","Categoria":"Represamiento","Nivel_riesgo":"3_MedioAlto_estabilizado","Niv_num":3,"Tipo_elem":"Unidades productivas","Amenaza_sitio":"ALTA","Amz_n":3,"Corredor":"Potrerito/Cedral","Vereda":"El Socorro"}},{"type":"Feature","id":24,"geometry":{"type":"Point","coordinates":[-75.44924679899998,6.408980381000049]},"properties":{"OBJECTID":24,"Nombre":"Zona de represamiento de material rocoso ante creciente.","Categoria":"Represamiento","Nivel_riesgo":"2_Alto_potencial","Niv_num":2,"Tipo_elem":"Punto de represamiento","Amenaza_sitio":"ALTA","Amz_n":3,"Corredor":"Potrerito/Cedral","Vereda":"El Socorro"}},{"type":"Feature","id":25,"geometry":{"type":"Point","coordinates":[-75.450707042999966,6.4103788820000318]},"properties":{"OBJECTID":25,"Nombre":"Acumulación de material Rocoso, Disipacion de Energía","Categoria":"Salto/material rocoso","Nivel_riesgo":"5_Bajo_recuperacion","Niv_num":5,"Tipo_elem":"Salto / cambio topografico","Amenaza_sitio":"ALTA","Amz_n":3,"Corredor":"Potrerito/Cedral","Vereda":"El Socorro"}},{"type":"Feature","id":26,"geometry":{"type":"Point","coordinates":[-75.451331634999974,6.4110070750000432]},"properties":{"OBJECTID":26,"Nombre":"Inestabilidad de Talud, posible represamiento","Categoria":"Represamiento","Nivel_riesgo":"3_MedioAlto_estabilizado","Niv_num":3,"Tipo_elem":"Punto de represamiento","Amenaza_sitio":"ALTA","Amz_n":3,"Corredor":"Potrerito/Cedral","Vereda":"El Socorro"}},{"type":"Feature","id":27,"geometry":{"type":"Point","coordinates":[-75.45206122899998,6.4107818600000428]},"properties":{"OBJECTID":27,"Nombre":"Incomunicacion en Camino Rual ante creciente","Categoria":"Exposición/otro","Nivel_riesgo":"3_MedioAlto_estabilizado","Niv_num":3,"Tipo_elem":"Via / camino","Amenaza_sitio":"ALTA","Amz_n":3,"Corredor":"Potrerito/Cedral","Vereda":"El Socorro"}},{"type":"Feature","id":28,"geometry":{"type":"Point","coordinates":[-75.452593332999982,6.4112861320000434]},"properties":{"OBJECTID":28,"Nombre":"Incomunicacion Veredal Ante Creciente.","Categoria":"Exposición/otro","Nivel_riesgo":"3_MedioAlto_estabilizado","Niv_num":3,"Tipo_elem":"Otro","Amenaza_sitio":"ALTA","Amz_n":3,"Corredor":"Potrerito/Cedral","Vereda":"El Socorro"}},{"type":"Feature","id":29,"geometry":{"type":"Point","coordinates":[-75.453012737999984,6.4121559390000584]},"properties":{"OBJECTID":29,"Nombre":"Cambio Topográfico, Salto, posible punto de represamiento. perdida de unidades productivas Agricolas: vacas, caballos, m","Categoria":"Represamiento","Nivel_riesgo":"2_Alto_potencial","Niv_num":2,"Tipo_elem":"Unidades productivas","Amenaza_sitio":"ALTA","Amz_n":3,"Corredor":"Potrerito/Cedral","Vereda":"El Socorro"}},{"type":"Feature","id":30,"geometry":{"type":"Point","coordinates":[-75.458222872999954,6.4161531570000534]},"properties":{"OBJECTID":30,"Nombre":"Se afectó la bocatoma del Acueducto de San Andrés","Categoria":"Exposición/otro","Nivel_riesgo":"1_Critico_emergencia","Niv_num":1,"Tipo_elem":"Bocatoma / acueducto","Amenaza_sitio":"ALTA","Amz_n":3,"Corredor":"Potrerito/Cedral","Vereda":"El Socorro"}},{"type":"Feature","id":31,"geometry":{"type":"Point","coordinates":[-75.458026783999969,6.4157862760000626]},"properties":{"OBJECTID":31,"Nombre":"Cambio Topográfico, Salto, posible punto de represamiento. perdida de unidades productivas Agricolas: vacas, caballos, m","Categoria":"Represamiento","Nivel_riesgo":"1_Critico_emergencia","Niv_num":1,"Tipo_elem":"Unidades productivas","Amenaza_sitio":"ALTA","Amz_n":3,"Corredor":"Potrerito/Cedral","Vereda":"El Socorro"}},{"type":"Feature","id":32,"geometry":{"type":"Point","coordinates":[-75.455730932999984,6.4135878610000532]},"properties":{"OBJECTID":32,"Nombre":"Cambio Topográfico, Salto, posible punto de represamiento. perdida de unidades productivas Agricolas: vacas, caballos, m","Categoria":"Represamiento","Nivel_riesgo":"1_Critico_emergencia","Niv_num":1,"Tipo_elem":"Unidades productivas","Amenaza_sitio":"ALTA","Amz_n":3,"Corredor":"Potrerito/Cedral","Vereda":"El Socorro"}},{"type":"Feature","id":33,"geometry":{"type":"Point","coordinates":[-75.458827345999964,6.417710062000026]},"properties":{"OBJECTID":33,"Nombre":"Cambio Topográfico, auemtno de energía para material rocoso","Categoria":"Salto/material rocoso","Nivel_riesgo":"1_Critico_emergencia","Niv_num":1,"Tipo_elem":"Salto / cambio topografico","Amenaza_sitio":"ALTA","Amz_n":3,"Corredor":"Potrerito/Cedral","Vereda":"El Socorro"}},{"type":"Feature","id":34,"geometry":{"type":"Point","coordinates":[-75.459000058999948,6.4188037770000506]},"properties":{"OBJECTID":34,"Nombre":"Camino- Ramal veredal. incomunicacion ante crecientes","Categoria":"Exposición/otro","Nivel_riesgo":"1_Critico_emergencia","Niv_num":1,"Tipo_elem":"Via / camino","Amenaza_sitio":"ALTA","Amz_n":3,"Corredor":"Potrerito/Cedral","Vereda":"El Socorro"}},{"type":"Feature","id":35,"geometry":{"type":"Point","coordinates":[-75.458882438999979,6.4181630930000324]},"properties":{"OBJECTID":35,"Nombre":"Cambio Topografico, Salto, aumento de energía para material Rocoso","Categoria":"Salto/material rocoso","Nivel_riesgo":"1_Critico_emergencia","Niv_num":1,"Tipo_elem":"Salto / cambio topografico","Amenaza_sitio":"ALTA","Amz_n":3,"Corredor":"Potrerito/Cedral","Vereda":"El Socorro"}},{"type":"Feature","id":36,"geometry":{"type":"Point","coordinates":[-75.459328184999947,6.4193906650000372]},"properties":{"OBJECTID":36,"Nombre":"Inestabilidad de Talud. Posible Represamiento.","Categoria":"Represamiento","Nivel_riesgo":"3_MedioAlto_estabilizado","Niv_num":3,"Tipo_elem":"Punto de represamiento","Amenaza_sitio":"ALTA","Amz_n":3,"Corredor":"Potrerito/Cedral","Vereda":"El Socorro"}},{"type":"Feature","id":37,"geometry":{"type":"Point","coordinates":[-75.458875846999945,6.4204859930000566]},"properties":{"OBJECTID":37,"Nombre":"Zona de Confluencia de material inestable por Talud natural","Categoria":"Movimiento en masa","Nivel_riesgo":"3_MedioAlto_estabilizado","Niv_num":3,"Tipo_elem":"Inestabilidad ladera/talud","Amenaza_sitio":"Fuera","Amz_n":0,"Corredor":"Potrerito/Cedral","Vereda":"El Socorro"}},{"type":"Feature","id":38,"geometry":{"type":"Point","coordinates":[-75.459743838999941,6.4225344670000482]},"properties":{"OBJECTID":38,"Nombre":"Inestablidad de ladera. posible Movimiento en masa que genere represamiento en afluente hidrico","Categoria":"Represamiento","Nivel_riesgo":"4_Medio_no_inmediato","Niv_num":4,"Tipo_elem":"Punto de represamiento","Amenaza_sitio":"ALTA","Amz_n":3,"Corredor":"Potrerito/Cedral","Vereda":"El Socorro"}},{"type":"Feature","id":39,"geometry":{"type":"Point","coordinates":[-75.460230730999967,6.4217070620000527]},"properties":{"OBJECTID":39,"Nombre":"escarpe de Moviemiento en masa, inestabilidad de Ladera que afecta dos ramales del afluente hidrico","Categoria":"Movimiento en masa","Nivel_riesgo":"4_Medio_no_inmediato","Niv_num":4,"Tipo_elem":"Via / camino","Amenaza_sitio":"BAJA","Amz_n":1,"Corredor":"Potrerito/Cedral","Vereda":"El Socorro"}},{"type":"Feature","id":40,"geometry":{"type":"Point","coordinates":[-75.459958717999939,6.4218223490000241]},"properties":{"OBJECTID":40,"Nombre":"Escarpe de Movimento en masa. inestabilidad de Talud por Hondada.","Categoria":"Movimiento en masa","Nivel_riesgo":"4_Medio_no_inmediato","Niv_num":4,"Tipo_elem":"Inestabilidad ladera/talud","Amenaza_sitio":"BAJA","Amz_n":1,"Corredor":"Potrerito/Cedral","Vereda":"El Socorro"}},{"type":"Feature","id":41,"geometry":{"type":"Point","coordinates":[-75.45945553699994,6.4219499970000697]},"properties":{"OBJECTID":41,"Nombre":"escarpe de Moviemiento en masa, inestabilidad de Ladera que afecta dos ramales del afluente hidrico","Categoria":"Movimiento en masa","Nivel_riesgo":"4_Medio_no_inmediato","Niv_num":4,"Tipo_elem":"Via / camino","Amenaza_sitio":"Fuera","Amz_n":0,"Corredor":"Potrerito/Cedral","Vereda":"El Socorro"}},{"type":"Feature","id":42,"geometry":{"type":"Point","coordinates":[-75.446848711999962,6.4083094530000722]},"properties":{"OBJECTID":42,"Nombre":"Inestabilidad de  Talud","Categoria":"Movimiento en masa","Nivel_riesgo":"4_Medio_no_inmediato","Niv_num":4,"Tipo_elem":"Inestabilidad ladera/talud","Amenaza_sitio":"ALTA","Amz_n":3,"Corredor":"San Andres (principal)","Vereda":"Mercedes Abrego"}},{"type":"Feature","id":43,"geometry":{"type":"Point","coordinates":[-75.447225573999958,6.4095112230000382]},"properties":{"OBJECTID":43,"Nombre":"Afectacion a Vía rural por creciente","Categoria":"Exposición/otro","Nivel_riesgo":"3_MedioAlto_estabilizado","Niv_num":3,"Tipo_elem":"Via / camino","Amenaza_sitio":"ALTA","Amz_n":3,"Corredor":"San Andres (principal)","Vereda":"El Socorro"}},{"type":"Feature","id":44,"geometry":{"type":"Point","coordinates":[-75.44718906199995,6.4099719260000256]},"properties":{"OBJECTID":44,"Nombre":"Posible punto de represamiento. perdida de unidades productivas Agricolas: vacas, caballos, mulas, cultivos. por crecien","Categoria":"Represamiento","Nivel_riesgo":"4_Medio_no_inmediato","Niv_num":4,"Tipo_elem":"Unidades productivas","Amenaza_sitio":"ALTA","Amz_n":3,"Corredor":"San Andres (principal)","Vereda":"El Socorro"}},{"type":"Feature","id":45,"geometry":{"type":"Point","coordinates":[-75.44942412599994,6.4122835370000644]},"properties":{"OBJECTID":45,"Nombre":"Afectación de vía rural ramal, por creciente torrencial","Categoria":"Exposición/otro","Nivel_riesgo":"4_Medio_no_inmediato","Niv_num":4,"Tipo_elem":"Via / camino","Amenaza_sitio":"ALTA","Amz_n":3,"Corredor":"San Andres (principal)","Vereda":"Potrerito"}},{"type":"Feature","id":46,"geometry":{"type":"Point","coordinates":[-75.449686533999966,6.4126198490000661]},"properties":{"OBJECTID":46,"Nombre":"Cambio Topográfico","Categoria":"Exposición/otro","Nivel_riesgo":"4_Medio_no_inmediato","Niv_num":4,"Tipo_elem":"Salto / cambio topografico","Amenaza_sitio":"ALTA","Amz_n":3,"Corredor":"San Andres (principal)","Vereda":"Potrerito"}},{"type":"Feature","id":47,"geometry":{"type":"Point","coordinates":[-75.450157144999935,6.4136622070000726]},"properties":{"OBJECTID":47,"Nombre":"Afectacion de unidades productivas por creciente","Categoria":"Exposición/otro","Nivel_riesgo":"4_Medio_no_inmediato","Niv_num":4,"Tipo_elem":"Unidades productivas","Amenaza_sitio":"ALTA","Amz_n":3,"Corredor":"San Andres (principal)","Vereda":"Potrerito"}},{"type":"Feature","id":48,"geometry":{"type":"Point","coordinates":[-75.45035345499997,6.4140329230000361]},"properties":{"OBJECTID":48,"Nombre":"Incomunicacion por afectacion de camino veredal por creciente","Categoria":"Exposición/otro","Nivel_riesgo":"4_Medio_no_inmediato","Niv_num":4,"Tipo_elem":"Via / camino","Amenaza_sitio":"ALTA","Amz_n":3,"Corredor":"San Andres (principal)","Vereda":"Potrerito"}},{"type":"Feature","id":49,"geometry":{"type":"Point","coordinates":[-75.450910475999933,6.4166654940000285]},"properties":{"OBJECTID":49,"Nombre":"Afectacion de camino peatonal rural y medios productivos","Categoria":"Exposición/otro","Nivel_riesgo":"4_Medio_no_inmediato","Niv_num":4,"Tipo_elem":"Via / camino","Amenaza_sitio":"ALTA","Amz_n":3,"Corredor":"San Andres (principal)","Vereda":"Potrerito"}},{"type":"Feature","id":50,"geometry":{"type":"Point","coordinates":[-75.451620220999985,6.4193086880000578]},"properties":{"OBJECTID":50,"Nombre":"Marcador sin título","Categoria":"Exposición/otro","Nivel_riesgo":"4_Medio_no_inmediato","Niv_num":4,"Tipo_elem":"Otro","Amenaza_sitio":"ALTA","Amz_n":3,"Corredor":"San Andres (principal)","Vereda":"Potrerito"}},{"type":"Feature","id":51,"geometry":{"type":"Point","coordinates":[-75.451341867999986,6.4188687650000702]},"properties":{"OBJECTID":51,"Nombre":"Cambio topográfico","Categoria":"Exposición/otro","Nivel_riesgo":"4_Medio_no_inmediato","Niv_num":4,"Tipo_elem":"Salto / cambio topografico","Amenaza_sitio":"ALTA","Amz_n":3,"Corredor":"San Andres (principal)","Vereda":"Potrerito"}},{"type":"Feature","id":52,"geometry":{"type":"Point","coordinates":[-75.452967239999964,6.4225382060000697]},"properties":{"OBJECTID":52,"Nombre":"Camino Topográfico, Salto, aumento de velocidad en material rocoso","Categoria":"Salto/material rocoso","Nivel_riesgo":"3_MedioAlto_estabilizado","Niv_num":3,"Tipo_elem":"Via / camino","Amenaza_sitio":"ALTA","Amz_n":3,"Corredor":"San Andres (principal)","Vereda":"Potrerito"}},{"type":"Feature","id":53,"geometry":{"type":"Point","coordinates":[-75.452845727999943,6.4223565700000336]},"properties":{"OBJECTID":53,"Nombre":"Socavamiento de la base de la ladera con la creciente subita","Categoria":"Movimiento en masa","Nivel_riesgo":"3_MedioAlto_estabilizado","Niv_num":3,"Tipo_elem":"Inestabilidad ladera/talud","Amenaza_sitio":"ALTA","Amz_n":3,"Corredor":"San Andres (principal)","Vereda":"Potrerito"}},{"type":"Feature","id":54,"geometry":{"type":"Point","coordinates":[-75.453341310999974,6.4227287770000316]},"properties":{"OBJECTID":54,"Nombre":"Afectacion a camino rural a vivienda pro crecietne, bloqueo de comunción","Categoria":"Exposición/otro","Nivel_riesgo":"3_MedioAlto_estabilizado","Niv_num":3,"Tipo_elem":"Vivienda","Amenaza_sitio":"ALTA","Amz_n":3,"Corredor":"San Andres (principal)","Vereda":"Potrerito"}},{"type":"Feature","id":55,"geometry":{"type":"Point","coordinates":[-75.455445719999943,6.4263367510000649]},"properties":{"OBJECTID":55,"Nombre":"Inestabiliad de ladera sobre borde de afluente, posible socavacion de la base","Categoria":"Movimiento en masa","Nivel_riesgo":"4_Medio_no_inmediato","Niv_num":4,"Tipo_elem":"Inestabilidad ladera/talud","Amenaza_sitio":"ALTA","Amz_n":3,"Corredor":"San Andres (principal)","Vereda":"Potrerito"}},{"type":"Feature","id":56,"geometry":{"type":"Point","coordinates":[-75.456280666999987,6.4263171350000334]},"properties":{"OBJECTID":56,"Nombre":"Afectacion de medios productivos por creciente","Categoria":"Exposición/otro","Nivel_riesgo":"4_Medio_no_inmediato","Niv_num":4,"Tipo_elem":"Unidades productivas","Amenaza_sitio":"ALTA","Amz_n":3,"Corredor":"San Andres (principal)","Vereda":"Potrerito"}},{"type":"Feature","id":57,"geometry":{"type":"Point","coordinates":[-75.457198447999986,6.4272994710000262]},"properties":{"OBJECTID":57,"Nombre":"Inestablidad de ladera, riesgo de represamiento","Categoria":"Represamiento","Nivel_riesgo":"3_MedioAlto_estabilizado","Niv_num":3,"Tipo_elem":"Punto de represamiento","Amenaza_sitio":"ALTA","Amz_n":3,"Corredor":"San Andres (principal)","Vereda":"Potrerito"}},{"type":"Feature","id":58,"geometry":{"type":"Point","coordinates":[-75.456870854999977,6.4268148410000663]},"properties":{"OBJECTID":58,"Nombre":"inestablidad de talud, base de talud","Categoria":"Movimiento en masa","Nivel_riesgo":"4_Medio_no_inmediato","Niv_num":4,"Tipo_elem":"Inestabilidad ladera/talud","Amenaza_sitio":"ALTA","Amz_n":3,"Corredor":"San Andres (principal)","Vereda":"Potrerito"}},{"type":"Feature","id":59,"geometry":{"type":"Point","coordinates":[-75.453961141999969,6.4248392460000332]},"properties":{"OBJECTID":59,"Nombre":"Cambio Topografico, salto, Cambio de velocidad","Categoria":"Salto/material rocoso","Nivel_riesgo":"4_Medio_no_inmediato","Niv_num":4,"Tipo_elem":"Salto / cambio topografico","Amenaza_sitio":"ALTA","Amz_n":3,"Corredor":"San Andres (principal)","Vereda":"Potrerito"}},{"type":"Feature","id":60,"geometry":{"type":"Point","coordinates":[-75.453713943999958,6.4235009590000232]},"properties":{"OBJECTID":60,"Nombre":"Afectacion por creciente a medios productivos","Categoria":"Exposición/otro","Nivel_riesgo":"5_Bajo_recuperacion","Niv_num":5,"Tipo_elem":"Unidades productivas","Amenaza_sitio":"ALTA","Amz_n":3,"Corredor":"San Andres (principal)","Vereda":"Potrerito"}},{"type":"Feature","id":61,"geometry":{"type":"Point","coordinates":[-75.453715080999984,6.424182672000029]},"properties":{"OBJECTID":61,"Nombre":"Cambio topografico, salto","Categoria":"Salto/material rocoso","Nivel_riesgo":"4_Medio_no_inmediato","Niv_num":4,"Tipo_elem":"Salto / cambio topografico","Amenaza_sitio":"ALTA","Amz_n":3,"Corredor":"San Andres (principal)","Vereda":"Potrerito"}}]}